{
    "SF": [
           {
           "name": "道祖神 at 三文字町",
           "latlng": "35.004613,135.752906"
           },
           {
           "name": "バリの神様の石像",
           "latlng": "35.009778,135.758487"
           },
           {
           "name": "大宮姫命稲荷大神",
           "latlng": "35.016326,135.744065"
           }
           ],
    "NM": [
           {
           "name": "Street Art",
           "latlng": "35.003552,135.758868"
           },
           {
           "name": "raditional Japanese Carvings",
           "latlng": "35.003563,135.756906"
           },
           {
           "name": "化粧水(けしょうのみず)の碑",
           "latlng": "35.003619,135.755313"
           },
           {
           "name": "駒札「膏薬辻子」",
           "latlng": "35.003558,135.755955"
           },
           {
           "name": "菊水の井跡",
           "latlng": "35.004545,135.758155"
           },
           {
           "name": "Lawson ローソン 烏丸錦小路",
           "latlng": "35.005563,135.759304"
           },
           {
           "name": "木下順庵邸阯",
           "latlng": "35.004905,135.758946"
           },
           {
           "name": "山伏山",
           "latlng": "35.005838,135.758156"
           },
           {
           "name": "橋弁慶山",
           "latlng": "35.006111,135.758867"
           },
           {
           "name": "Kiryu-in temple",
           "latlng": "35.004986,135.755727"
           },
           {
           "name": "本門佛立宗開講聖地",
           "latlng": "35.005669,135.756606"
           },
           {
           "name": "南蛮寺跡の碑",
           "latlng": "35.006192,135.75753"
           },
           {
           "name": "お地蔵様@姥柳町",
           "latlng": "35.006148,135.757144"
           },
           {
           "name": "京都新町蛸薬師郵便局",
           "latlng": "35.006431,135.756696"
           },
           {
           "name": "茶屋家屋敷跡",
           "latlng": "35.006003,135.756687"
           },
           {
           "name": "京都芸術センター",
           "latlng": "35.00526,135.758154"
           },
           {
           "name": "三井両替店旧址",
           "latlng": "35.006808,135.756467"
           },
           {
           "name": "カラクリ湿度計",
           "latlng": "35.007595,135.759496"
           },
           {
           "name": "将軍御成門跡",
           "latlng": "35.00736,135.757546"
           },
           {
           "name": "The wavy sculpture",
           "latlng": "35.007297,135.757266"
           },
           {
           "name": "お地蔵様 at 古西町",
           "latlng": "35.005581,135.755"
           },
           {
           "name": "お地蔵様@骨屋町",
           "latlng": "35.007311,135.758548"
           },
           {
           "name": "信長茶寮",
           "latlng": "35.006543,135.755108"
           },
           {
           "name": "本能寺跡",
           "latlng": "35.006054,135.754371"
           },
           {
           "name": "本能寺址",
           "latlng": "35.005676,135.753678"
           },
           {
           "name": "Stone Lantern",
           "latlng": "35.004991,135.754382"
           },
           {
           "name": "野口家住宅",
           "latlng": "35.004627,135.753602"
           },
           {
           "name": "世継地蔵大菩薩",
           "latlng": "35.00492,135.754095"
           },
           {
           "name": "祠 (下京区柏屋町)",
           "latlng": "35.003747,135.752435"
           },
           {
           "name": "Magatama",
           "latlng": "35.004222,135.752114"
           },
           {
           "name": "醒ヶ井水",
           "latlng": "35.00383,135.752923"
           },
           {
           "name": "本能寺跡石碑",
           "latlng": "35.005956,135.753703"
           },
           {
           "name": "空也堂",
           "latlng": "35.006063,135.753268"
           },
           {
           "name": "龍田稲荷神社",
           "latlng": "35.006093,135.753028"
           },
           {
           "name": "三条南殿の遺址",
           "latlng": "35.008285,135.75947"
           },
           {
           "name": "Flower on the Building",
           "latlng": "35.006401,135.752047"
           },
           {
           "name": "三条烏丸御所跡",
           "latlng": "35.008538,135.758785"
           },
           {
           "name": "三条西殿・三条大路址",
           "latlng": "35.008642,135.759363"
           },
           {
           "name": "京都伝統工芸館 Gallery of Kyoto Traditional Arts & Crafts",
           "latlng": "35.00901,135.75947"
           },
           {
           "name": "Suzuka Yama",
           "latlng": "35.009759,135.759485"
           },
           {
           "name": "鷹山",
           "latlng": "35.008689,135.757736"
           },
           {
           "name": "廣野了頓邸後",
           "latlng": "35.008098,135.757379"
           },
           {
           "name": "Lawson ローソン 烏丸三条",
           "latlng": "35.009332,135.759396"
           },
           {
           "name": "八幡山保存会",
           "latlng": "35.008124,135.756672"
           },
           {
           "name": "光岸寺",
           "latlng": "35.00654,135.753694"
           },
           {
           "name": "五色の辻の歌碑",
           "latlng": "35.008626,135.75798"
           },
           {
           "name": "紫織庵",
           "latlng": "35.007788,135.756571"
           },
           {
           "name": "Sanjo Oike Sign",
           "latlng": "35.00959,135.756649"
           },
           {
           "name": "居酒屋匠 京乃 たまやの街灯",
           "latlng": "35.008621,135.756194"
           },
           {
           "name": "お地蔵様@釜座町",
           "latlng": "35.008535,135.755768"
           },
           {
           "name": "柳の水",
           "latlng": "35.007973,135.755203"
           },
           {
           "name": "京都西洞院三条郵便局",
           "latlng": "35.008604,135.755219"
           },
           {
           "name": "天道大日如来@姉西洞院町",
           "latlng": "35.009187,135.755121"
           },
           {
           "name": "お地蔵様@姉東堀川町",
           "latlng": "35.008994,135.752424"
           },
           {
           "name": "本能公園",
           "latlng": "35.007379,135.754124"
           },
           {
           "name": "高松神明神社",
           "latlng": "35.009871,135.756117"
           },
           {
           "name": "お地蔵様@三条油小路町",
           "latlng": "35.008191,135.753601"
           },
           {
           "name": "⊂（＾ω＾）⊃ﾌﾞｰﾝ",
           "latlng": "35.008591,135.753749"
           },
           {
           "name": "お地蔵様@西堂町",
           "latlng": "35.008958,135.754266"
           },
           {
           "name": "越後神社",
           "latlng": "35.008069,135.752399"
           },
           {
           "name": "Jizo Temple at Anehigashihorikawa",
           "latlng": "35.009333,135.75269"
           },
           {
           "name": "お地蔵様宮木町",
           "latlng": "35.00958,135.754279"
           },
           {
           "name": "お地蔵様@三坊西洞院町",
           "latlng": "35.010225,135.755096"
           },
           {
           "name": "Kyoto Shibori Museum",
           "latlng": "35.01018,135.75364"
           },
           {
           "name": "お地蔵様@式阿弥町",
           "latlng": "35.010405,135.753103"
           },
           {
           "name": "烏丸御池南西角",
           "latlng": "35.010623,135.759433"
           },
           {
           "name": "地下鉄烏丸御池駅(出入口2)",
           "latlng": "35.01098,135.759177"
           },
           {
           "name": "両替町通",
           "latlng": "35.010947,135.758864"
           },
           {
           "name": "両替町通",
           "latlng": "35.010677,135.758688"
           },
           {
           "name": "京都国際マンガミュージアム",
           "latlng": "35.011871,135.759472"
           },
           {
           "name": "徳川時代金座遺址 石碑",
           "latlng": "35.011814,135.75885"
           },
           {
           "name": "徳川時代銀座遺址 石碑",
           "latlng": "35.011372,135.758838"
           },
           {
           "name": "二条殿址 石碑",
           "latlng": "35.011558,135.758827"
           },
           {
           "name": "二条殿御池跡石碑",
           "latlng": "35.011611,135.758033"
           },
           {
           "name": "衣棚通",
           "latlng": "35.011011,135.75731"
           },
           {
           "name": "The Big Wheel Building",
           "latlng": "35.010985,135.758154"
           },
           {
           "name": "肥前鹿島鍋島藩屋敷跡",
           "latlng": "35.010684,135.756462"
           },
           {
           "name": "新町通",
           "latlng": "35.010984,135.756669"
           },
           {
           "name": "釜座通",
           "latlng": "35.010974,135.755911"
           },
           {
           "name": "刀を持った鍾馗さん",
           "latlng": "35.011055,135.755294"
           },
           {
           "name": "御金神社の黄金鳥居",
           "latlng": "35.011845,135.755086"
           },
           {
           "name": "御池の小川通指標",
           "latlng": "35.011116,135.754123"
           },
           {
           "name": "西洞院通",
           "latlng": "35.010685,135.75523"
           },
           {
           "name": "洛陽照円寺",
           "latlng": "35.011248,135.753516"
           },
           {
           "name": "神具",
           "latlng": "35.011517,135.754148"
           },
           {
           "name": "金光教押小路教会",
           "latlng": "35.011863,135.754251"
           },
           {
           "name": "堀川通",
           "latlng": "35.011175,135.752215"
           },
           {
           "name": "Nijojo-mae Subway Station Compass",
           "latlng": "35.011784,135.752126"
           },
           {
           "name": "獅子頭",
           "latlng": "35.011234,135.751415"
           },
           {
           "name": "堀川押小路橋欄干",
           "latlng": "35.0122,135.751996"
           },
           {
           "name": "上巴町地蔵尊",
           "latlng": "35.010844,135.750837"
           },
           {
           "name": "最上町地蔵尊",
           "latlng": "35.011425,135.750464"
           },
           {
           "name": "堀川御池橋跡の石碑",
           "latlng": "35.011423,135.751965"
           },
           {
           "name": "Fox of ANA Crowne Plaza",
           "latlng": "35.012835,135.752339"
           },
           {
           "name": "橋本左内寓居跡石碑",
           "latlng": "35.013535,135.752107"
           },
           {
           "name": "福井藩邸跡石碑",
           "latlng": "35.013062,135.752101"
           },
           {
           "name": "織物屋町延命地蔵尊",
           "latlng": "35.011472,135.749678"
           },
           {
           "name": "矢剱大明神社",
           "latlng": "35.011274,135.748396"
           },
           {
           "name": "黒門御池地蔵尊",
           "latlng": "35.010996,135.749473"
           },
           {
           "name": "善女龍王",
           "latlng": "35.011193,135.748104"
           },
           {
           "name": "亀塚と鯉塚",
           "latlng": "35.011186,135.74786"
           },
           {
           "name": "東町奉行所跡",
           "latlng": "35.011999,135.74686"
           },
           {
           "name": "神泉苑",
           "latlng": "35.01187,135.747881"
           },
           {
           "name": "小浜藩邸跡",
           "latlng": "35.010937,135.746205"
           },
           {
           "name": "京都西ノ京職司郵便局",
           "latlng": "35.011085,135.745017"
           },
           {
           "name": "西ノ京北聖地蔵尊",
           "latlng": "35.012159,135.745201"
           },
           {
           "name": "二条城撮影所跡",
           "latlng": "35.012403,135.745091"
           },
           {
           "name": "西ノ京職司町地蔵尊",
           "latlng": "35.011372,135.745799"
           },
           {
           "name": "西ノ京北聖町地蔵尊",
           "latlng": "35.011653,135.742924"
           },
           {
           "name": "大学寮跡",
           "latlng": "35.012446,135.74393"
           },
           {
           "name": "Lawson ローソン 二条駅前",
           "latlng": "35.011758,135.742986"
           },
           {
           "name": "山紫水明古都絵巻",
           "latlng": "35.01249,135.743031"
           },
           {
           "name": "弘文院址の碑",
           "latlng": "35.011089,135.744433"
           },
           {
           "name": "西ノ京式部町地蔵尊",
           "latlng": "35.014307,135.743882"
           },
           {
           "name": "お地蔵様@聚楽廻南町",
           "latlng": "35.014463,135.742481"
           },
           {
           "name": "主税町地蔵尊",
           "latlng": "35.015158,135.743173"
           },
           {
           "name": "お地蔵様@主税町",
           "latlng": "35.015444,135.743265"
           },
           {
           "name": "地蔵尊@主税町",
           "latlng": "35.015749,135.74312"
           },
           {
           "name": "西町奉行所跡",
           "latlng": "35.01265,135.742711"
           },
           {
           "name": "二条公園",
           "latlng": "35.016161,135.745608"
           },
           {
           "name": "主税町南地蔵尊",
           "latlng": "35.016782,135.744512"
           },
           {
           "name": "鵺池碑",
           "latlng": "35.017099,135.745871"
           },
           {
           "name": "京都聚楽郵便局",
           "latlng": "35.016736,135.742713"
           },
           {
           "name": "平安宮 民部省跡の碑",
           "latlng": "35.015469,135.745352"
           },
           {
           "name": "主税町北地蔵尊",
           "latlng": "35.017317,135.743917"
           },
           {
           "name": "Lawson ローソン 千本丸太町",
           "latlng": "35.017891,135.742962"
           },
           {
           "name": "平安宮主水司跡",
           "latlng": "35.017905,135.747265"
           },
           {
           "name": "南伊勢屋町地蔵尊",
           "latlng": "35.017193,135.747745"
           },
           {
           "name": "左馬松町大日如来",
           "latlng": "35.01713,135.748324"
           },
           {
           "name": "上京区四町目のお地蔵様、日暮通",
           "latlng": "35.016583,135.747708"
           },
           {
           "name": "朝堂院跡",
           "latlng": "35.018085,135.742798"
           },
           {
           "name": "Kyoto Omiya Marutamachi Post Office",
           "latlng": "35.017422,135.749148"
           },
           {
           "name": "所司代屋敷址",
           "latlng": "35.017245,135.749566"
           },
           {
           "name": "子育地蔵尊",
           "latlng": "35.015892,135.75086"
           },
           {
           "name": "京都所司代上屋敷跡",
           "latlng": "35.01703,135.750436"
           },
           {
           "name": "堀川夷川橋欄干",
           "latlng": "35.014818,135.752013"
           },
           {
           "name": "歴史・職人の街 の石碑",
           "latlng": "35.015393,135.751986"
           }
           ]
}